{"address":[{"title":"","tel":[],"cell":["+380504500494"],"email":["info@carrousel.com.ua"],"adr":"\u0433. \u041a\u0438\u0435\u0432, \u0443\u043b. \u041f. C\u0430\u0433\u0430\u0439\u0434\u0430\u0447\u043d\u043e\u0433\u043e, 23\/8","pos":{"lat":30.523397,"lng":50.450097},"central":true},{"title":"\u0421\u0430\u043b\u043e\u043d \u043a\u0440\u0430\u0441\u043e\u0442\u044b Hair house","tel":["0445009811"],"cell":[],"email":[],"adr":"\u0433. \u041a\u0438\u0435\u0432, \u0443\u043b. C\u0430\u043a\u0441\u0430\u0433\u0430\u043d\u0441\u043a\u043e\u0433\u043e, 20","pos":{"lat":30.525194,"lng":50.450452},"central":false},{"title":"\u0421\u0430\u043b\u043e\u043d \u043a\u0440\u0430\u0441\u043e\u0442\u044b Color bar","tel":["0504355343"],"cell":[],"email":[],"adr":"\u0433. \u041a\u0438\u0435\u0432, \u0443\u043b. \u041a\u0440\u0430\u0441\u043d\u043e\u0430\u0440\u043c\u0435\u0439\u0441\u043a\u0430\u044f, 33","pos":{"lat":30.516578,"lng":50.438101},"central":false},{"title":"\u041a\u0430\u0444\u0435 Like restacafe","tel":["0445857005"],"cell":[],"email":[],"adr":"\u0433. \u041a\u0438\u0435\u0432, \u0443\u043b. \u041d. \u0413\u0440\u0438\u043d\u0447\u0435\u043d\u043a\u0430, 2\/1","pos":{"lat":30.506501,"lng":50.425114},"central":false},{"title":"\u0411\u044e\u0440\u043e \u0432\u0438\u043d Good wine","tel":["0444911075"],"cell":[],"email":[],"adr":"\u0433. \u041a\u0438\u0435\u0432, \u0443\u043b. \u041c\u0435\u0447\u043d\u0438\u043a\u043e\u0432\u0430, 9","pos":{"lat":30.534103,"lng":50.438372},"central":false},{"title":"\u0421\u0430\u043b\u043e\u043d \u0446\u0432\u0435\u0442\u043e\u0432 Bouquet","tel":["0445007613"],"cell":[],"email":[],"adr":"\u0433. \u041a\u0438\u0435\u0432, \u043f\u0440-\u0442 \u0433\u0435\u0440\u043e\u0435\u0432 \u0421\u0442\u0430\u043b\u0438\u043d\u0433\u0440\u0430\u0434\u0430, 8\u0430","pos":{"lat":30.517921,"lng":50.498631},"central":false},{"title":"\u0421\u0430\u043b\u043e\u043d \u0446\u0432\u0435\u0442\u043e\u0432 Bouquet","tel":["0442889122"],"cell":[],"email":[],"adr":"\u0433. \u041a\u0438\u0435\u0432, \u041a\u043b\u043e\u0432\u0441\u043a\u0438\u0439 \u0441\u043f\u0443\u0441\u043a, 12\u0430","pos":{"lat":30.537563,"lng":50.439233},"central":false},{"title":"\u041a\u043e\u0444\u0435\u0439\u043d\u044f Aroma espresso bar","tel":["0444619728"],"cell":[],"email":[],"adr":"\u0433. \u041a\u0438\u0435\u0432, \u041c\u0435\u0447\u043d\u0438\u043a\u043e\u0432\u0430, 3","pos":{"lat":30.529474,"lng":50.438087},"central":false},{"title":"\u041a\u043e\u0444\u0435\u0439\u043d\u044f Aroma espresso bar","tel":["0445960020"],"cell":[],"email":[],"adr":"\u0433. \u041a\u0438\u0435\u0432, \u0416\u0438\u043b\u044f\u043d\u0441\u043a\u0430\u044f, 75","pos":{"lat":30.498784,"lng":50.439263},"central":false},{"title":"\u041a\u043e\u0444\u0435\u0439\u043d\u044f Aroma espresso bar","tel":["0442016633"],"cell":[],"email":[],"adr":"\u0433. \u041a\u0438\u0435\u0432, \u0414\u0438\u043c\u0438\u0442\u0440\u043e\u0432\u0430 5","pos":{"lat":30.517738,"lng":50.429992},"central":false},{"title":"\u0420\u0435\u0441\u0442\u043e\u0440\u0430\u043d Mr. Zuma","tel":["0443749888"],"cell":[],"email":[],"adr":"\u0433. \u041a\u0438\u0435\u0432, \u0421\u043f\u043e\u0440\u0442\u0438\u0432\u043d\u0430\u044f, 1\u0430","pos":{"lat":30.522376,"lng":50.437542},"central":false},{"title":"\u041a\u0430\u0444\u0435 \u041a\u043e\u0444\u0435\u0442\u0443\u0442","tel":["0442270064"],"cell":[],"email":[],"adr":"\u0433. \u041a\u0438\u0435\u0432, \u0423\u043b. \u0410\u0440\u0442\u0435\u043c\u0430, 11","pos":{"lat":30.50378,"lng":50.456086},"central":false},{"title":"\u041a\u043e\u0444\u0435\u0439\u043d\u044f \u041a\u043e\u0440\u0438\u0446\u0430","tel":["0442870088"],"cell":[],"email":[],"adr":"\u0433. \u041a\u0438\u0435\u0432, \u0443\u043b. \u0411\u043e\u043b\u044c\u0448\u0430\u044f \u0432\u0430\u0441\u0438\u043b\u044c\u043a\u043e\u0432\u0441\u043a\u0430\u044f, 48","pos":{"lat":30.515673,"lng":50.436679},"central":false}]}